[{"City":"Ahmedabad","Lat":23.025793,"Long":72.587265,"w":100},{"City":"Bengaluru","Lat":12.977063,"Long":77.587106,"w":200},{"City":"Chennai","Lat":13.084622,"Long":80.248357,"w":400},{"City":"Gurugram","Lat":28.460105,"Long":77.026352,"w":400},{"City":"Hyderabad","Lat":17.384052,"Long":78.456355,"w":400},{"City":"Jaipur","Lat":26.913312,"Long":75.787872,"w":400},{"City":"Kolkata ","Lat":22.562627,"Long":88.363044,"w":400},{"City":"Lucknow","Lat":26.839281,"Long":80.923133,"w":400},{"City":"Mumbai","Lat":18.987807,"Long":72.836447,"w":400},{"City":"Nagpur","Lat":21.1458,"Long":79.0882,"w":400},{"City":"New Delhi","Lat":28.6,"Long":77.2,"w":300},{"City":"Patna","Lat":25.615379,"Long":85.101027},{"City":"Pune","Lat":18.513271,"Long":73.849852}]